schoolID, lat, lon, name, around_latitudes
278,33.4193216,-111.9379033,School of Georaphical Sciences and Urban Planning, [[33.419212508892606, -111.9377942088926], [33.4194306911074, -111.9377942088926], [33.4194306911074, -111.9380123911074], [33.419212508892606, -111.9380123911074]]
278,33.4239343,-111.9348660,Mount Carmel School, [[33.4238252088926, -111.9347569088926], [33.424043391107396, -111.9347569088926], [33.424043391107396, -111.9349750911074], [33.4238252088926, -111.9349750911074]]
278,33.4235000,-111.9389000,Brickyard Artisan Courtyard, [[33.4233909088926, -111.9387909088926], [33.423609091107394, -111.9387909088926], [33.423609091107394, -111.93900909110741], [33.4233909088926, -111.93900909110741]]
278,33.4211000,-111.9356000,Cowden Family Resources, [[33.420990908892605, -111.93549090889259], [33.4212090911074, -111.93549090889259], [33.4212090911074, -111.9357090911074], [33.420990908892605, -111.9357090911074]]
278,33.4187000,-111.9389000,Galvin Playhouse, [[33.418590908892604, -111.9387909088926], [33.4188090911074, -111.9387909088926], [33.4188090911074, -111.93900909110741], [33.418590908892604, -111.93900909110741]]
278,33.4187000,-111.9395000,Nelson Fine Arts Center, [[33.418590908892604, -111.93939090889259], [33.4188090911074, -111.93939090889259], [33.4188090911074, -111.9396090911074], [33.418590908892604, -111.9396090911074]]
278,33.4250999,-111.9359001,University Towers, [[33.4249908088926, -111.9357910088926], [33.4252089911074, -111.9357910088926], [33.4252089911074, -111.9360091911074], [33.4249908088926, -111.9360091911074]]
278,33.4236000,-111.9396000,Brickyard Engineering Building, [[33.4234909088926, -111.9394909088926], [33.4237090911074, -111.9394909088926], [33.4237090911074, -111.9397090911074], [33.4234909088926, -111.9397090911074]]
278,33.4187386,-111.9384367,Arizona State University Art Museum, [[33.4186295088926, -111.93832760889259], [33.418847691107395, -111.93832760889259], [33.418847691107395, -111.9385457911074], [33.4186295088926, -111.9385457911074]]
278,33.4180600,-111.9346917,Einstein Bros and Bagels, [[33.4179509088926, -111.9345826088926], [33.418169091107394, -111.9345826088926], [33.418169091107394, -111.9348007911074], [33.4179509088926, -111.9348007911074]]
278,33.4176918,-111.9346869,Devil's Market, [[33.4175827088926, -111.9345778088926], [33.4178008911074, -111.9345778088926], [33.4178008911074, -111.9347959911074], [33.4175827088926, -111.9347959911074]]
278,33.4214395,-111.9361353,First United Methodist, [[33.4213304088926, -111.9360262088926], [33.421548591107396, -111.9360262088926], [33.421548591107396, -111.93624439110741], [33.4213304088926, -111.93624439110741]]
278,33.4251135,-111.9352805,Dave's Electric Brewpub, [[33.425004408892605, -111.9351714088926], [33.4252225911074, -111.9351714088926], [33.4252225911074, -111.93538959110741], [33.425004408892605, -111.93538959110741]]
278,33.4206546,-111.9426627,Casey Moore's Oyster House, [[33.4205455088926, -111.9425536088926], [33.420763691107396, -111.9425536088926], [33.420763691107396, -111.9427717911074], [33.4205455088926, -111.9427717911074]]
278,33.4260532,-111.9359415,22. Veterans Way, [[33.4259441088926, -111.9358324088926], [33.426162291107396, -111.9358324088926], [33.426162291107396, -111.9360505911074], [33.4259441088926, -111.9360505911074]]
278,33.4261348,-111.9359100,22. Veterans Way, [[33.4260257088926, -111.9358009088926], [33.4262438911074, -111.9358009088926], [33.4262438911074, -111.93601909110741], [33.4260257088926, -111.93601909110741]]
278,33.4174865,-111.9354372,Apollo 15 Lunar Sample (Moon rock!), [[33.417377408892605, -111.93532810889259], [33.4175955911074, -111.93532810889259], [33.4175955911074, -111.9355462911074], [33.417377408892605, -111.9355462911074]]
278,33.4174730,-111.9354907,Lunar Reconnaissance Orbiter Camera Visitor Gallery, [[33.417363908892604, -111.9353816088926], [33.4175820911074, -111.9353816088926], [33.4175820911074, -111.9355997911074], [33.417363908892604, -111.9355997911074]]
278,33.4256610,-111.9400800,Bank of America ATM, [[33.4255519088926, -111.93997090889259], [33.425770091107395, -111.93997090889259], [33.425770091107395, -111.9401890911074], [33.4255519088926, -111.9401890911074]]
278,33.4240650,-111.9398757,Bank of America, [[33.4239559088926, -111.9397666088926], [33.424174091107396, -111.9397666088926], [33.424174091107396, -111.9399847911074], [33.4239559088926, -111.9399847911074]]
278,33.4242317,-111.9390950,Bison Witches, [[33.4241226088926, -111.93898590889259], [33.4243407911074, -111.93898590889259], [33.4243407911074, -111.9392040911074], [33.4241226088926, -111.9392040911074]]
278,33.4238099,-111.9394006,Bliss Frozen Yogurt, [[33.423700808892605, -111.9392915088926], [33.4239189911074, -111.9392915088926], [33.4239189911074, -111.9395096911074], [33.423700808892605, -111.9395096911074]]
278,33.4256320,-111.9400815,Boba Deli, [[33.4255229088926, -111.9399724088926], [33.4257410911074, -111.9399724088926], [33.4257410911074, -111.94019059110741], [33.4255229088926, -111.94019059110741]]
278,33.4259110,-111.9400724,Brand X, [[33.4258019088926, -111.9399633088926], [33.4260200911074, -111.9399633088926], [33.4260200911074, -111.94018149110741], [33.4258019088926, -111.94018149110741]]
278,33.4262734,-111.9398061,Cactus Sports, [[33.4261643088926, -111.9396970088926], [33.4263824911074, -111.9396970088926], [33.4263824911074, -111.9399151911074], [33.4261643088926, -111.9399151911074]]
278,33.4244059,-111.9398364,Campus Corner, [[33.4242968088926, -111.9397273088926], [33.424514991107394, -111.9397273088926], [33.424514991107394, -111.93994549110741], [33.4242968088926, -111.93994549110741]]
278,33.4257987,-111.9400800,Campus Gold Jewelers, [[33.425689608892604, -111.93997090889259], [33.4259077911074, -111.93997090889259], [33.4259077911074, -111.9401890911074], [33.425689608892604, -111.9401890911074]]
278,33.4223595,-111.9413461,Chase, [[33.4222504088926, -111.9412370088926], [33.422468591107396, -111.9412370088926], [33.422468591107396, -111.94145519110741], [33.4222504088926, -111.94145519110741]]
278,33.4262192,-111.9398027,Cherry Lounge & Pit, [[33.4261101088926, -111.9396936088926], [33.426328291107396, -111.9396936088926], [33.426328291107396, -111.9399117911074], [33.4261101088926, -111.9399117911074]]
278,33.4242418,-111.9393583,Chronic Taco, [[33.4241327088926, -111.93924920889259], [33.424350891107395, -111.93924920889259], [33.424350891107395, -111.9394673911074], [33.4241327088926, -111.9394673911074]]
278,33.4244842,-111.9395701,City of Tempe Customer Services, [[33.424375108892605, -111.9394610088926], [33.4245932911074, -111.9394610088926], [33.4245932911074, -111.9396791911074], [33.424375108892605, -111.9396791911074]]
278,33.4244994,-111.9396488,City of Tempe Human Resources, [[33.424390308892605, -111.9395397088926], [33.4246084911074, -111.9395397088926], [33.4246084911074, -111.9397578911074], [33.424390308892605, -111.9397578911074]]
278,33.4257090,-111.9399453,Comerica Bank ATM, [[33.4255999088926, -111.9398362088926], [33.425818091107395, -111.9398362088926], [33.425818091107395, -111.94005439110741], [33.4255999088926, -111.94005439110741]]
278,33.4256598,-111.9399544,Comerica Bank, [[33.4255507088926, -111.9398453088926], [33.425768891107396, -111.9398453088926], [33.425768891107396, -111.94006349110741], [33.4255507088926, -111.94006349110741]]
278,33.4262368,-111.9399317,Corleone's Cheesesteaks, [[33.4261277088926, -111.9398226088926], [33.426345891107395, -111.9398226088926], [33.426345891107395, -111.9400407911074], [33.4261277088926, -111.9400407911074]]
278,33.4252039,-111.9399120,Crave cafe & lounge, [[33.4250948088926, -111.9398029088926], [33.4253129911074, -111.9398029088926], [33.4253129911074, -111.94002109110741], [33.4250948088926, -111.94002109110741]]
278,33.4259994,-111.9400784,Cricket Broadband, [[33.425890308892605, -111.9399693088926], [33.4261084911074, -111.9399693088926], [33.4261084911074, -111.94018749110741], [33.425890308892605, -111.94018749110741]]
278,33.4258113,-111.9399498,Dunkin Donuts, [[33.4257022088926, -111.93984070889259], [33.4259203911074, -111.93984070889259], [33.4259203911074, -111.9400588911074], [33.4257022088926, -111.9400588911074]]
278,33.4261825,-111.9398122,Fascinations, [[33.426073408892606, -111.9397031088926], [33.4262915911074, -111.9397031088926], [33.4262915911074, -111.93992129110741], [33.426073408892606, -111.93992129110741]]
278,33.4257166,-111.9400800,Fatburger, [[33.425607508892604, -111.93997090889259], [33.4258256911074, -111.93997090889259], [33.4258256911074, -111.9401890911074], [33.425607508892604, -111.9401890911074]]
278,33.4255726,-111.9402055,Gordon Biersch Brewery& Restaurant, [[33.425463508892605, -111.9400964088926], [33.4256816911074, -111.9400964088926], [33.4256816911074, -111.94031459110741], [33.425463508892605, -111.94031459110741]]
278,33.4263317,-111.9411014,Hackett House, [[33.4262226088926, -111.94099230889259], [33.426440791107396, -111.94099230889259], [33.426440791107396, -111.9412104911074], [33.4262226088926, -111.9412104911074]]
278,33.4242291,-111.9398848,Hippie Gypsy, [[33.4241200088926, -111.9397757088926], [33.424338191107395, -111.9397757088926], [33.424338191107395, -111.9399938911074], [33.4241200088926, -111.9399938911074]]
278,33.4261156,-111.9400875,Hippies Cove, [[33.426006508892605, -111.9399784088926], [33.4262246911074, -111.9399784088926], [33.4262246911074, -111.94019659110741], [33.426006508892605, -111.94019659110741]]
278,33.4252721,-111.9399120,Hooters, [[33.4251630088926, -111.9398029088926], [33.4253811911074, -111.9398029088926], [33.4253811911074, -111.94002109110741], [33.4251630088926, -111.94002109110741]]
278,33.4253176,-111.9399150,Library Bar & Grill, [[33.4252085088926, -111.9398059088926], [33.4254266911074, -111.9398059088926], [33.4254266911074, -111.9400240911074], [33.4252085088926, -111.9400240911074]]
278,33.4255865,-111.9400800,Lotions & Potions, [[33.425477408892604, -111.93997090889259], [33.4256955911074, -111.93997090889259], [33.4256955911074, -111.9401890911074], [33.425477408892604, -111.9401890911074]]
278,33.4262090,-111.9400905,Med Fresh Grill, [[33.4260999088926, -111.93998140889259], [33.4263180911074, -111.93998140889259], [33.4263180911074, -111.9401995911074], [33.4260999088926, -111.9401995911074]]
278,33.4241407,-111.9398394,Mill Cue Club Bar & Billiards, [[33.424031608892605, -111.93973030889259], [33.4242497911074, -111.93973030889259], [33.4242497911074, -111.9399484911074], [33.424031608892605, -111.9399484911074]]
278,33.4240271,-111.9387592,Mitchell Government Center, [[33.423918008892606, -111.9386501088926], [33.4241361911074, -111.9386501088926], [33.4241361911074, -111.93886829110741], [33.423918008892606, -111.93886829110741]]
278,33.4247923,-111.9398606,My Big Fat Greek Restaurant, [[33.4246832088926, -111.9397515088926], [33.4249013911074, -111.9397515088926], [33.4249013911074, -111.93996969110741], [33.4246832088926, -111.93996969110741]]
278,33.4263757,-111.9401163,Pho Thang Long Vietnamese Cuisine, [[33.426266608892604, -111.9400072088926], [33.4264847911074, -111.9400072088926], [33.4264847911074, -111.9402253911074], [33.426266608892604, -111.9402253911074]]
278,33.4260701,-111.9399529,Ra Sushi Bar Restaurant, [[33.4259610088926, -111.93984380889259], [33.426179191107394, -111.93984380889259], [33.426179191107394, -111.9400619911074], [33.4259610088926, -111.9400619911074]]
278,33.4259161,-111.9399483,Restaurant Mexico, [[33.425807008892605, -111.9398392088926], [33.4260251911074, -111.9398392088926], [33.4260251911074, -111.9400573911074], [33.425807008892605, -111.9400573911074]]
278,33.4262936,-111.9398076,Rula Bula Irish Pub, [[33.426184508892604, -111.93969850889259], [33.4264026911074, -111.93969850889259], [33.4264026911074, -111.9399166911074], [33.426184508892604, -111.9399166911074]]
278,33.4263782,-111.9403417,Silver Mine Subs, [[33.426269108892605, -111.9402326088926], [33.4264872911074, -111.9402326088926], [33.4264872911074, -111.94045079110741], [33.426269108892605, -111.94045079110741]]
278,33.4242493,-111.9397759,Slices pizza by the slice, [[33.4241402088926, -111.9396668088926], [33.4243583911074, -111.9396668088926], [33.4243583911074, -111.9398849911074], [33.4241402088926, -111.9398849911074]]
278,33.4255449,-111.9400784,Starbucks Coffee, [[33.4254358088926, -111.9399693088926], [33.425653991107396, -111.9399693088926], [33.425653991107396, -111.94018749110741], [33.4254358088926, -111.94018749110741]]
278,33.4253176,-111.9398545,The Big Bang Dueling Piano Bar, [[33.4252085088926, -111.93974540889259], [33.4254266911074, -111.93974540889259], [33.4254266911074, -111.9399635911074], [33.4252085088926, -111.9399635911074]]
278,33.4242367,-111.9396185,The Munchies Cafe, [[33.424127608892604, -111.93950940889259], [33.4243457911074, -111.93950940889259], [33.4243457911074, -111.9397275911074], [33.424127608892604, -111.9397275911074]]
278,33.4244842,-111.9398666,Urban Outfitters, [[33.424375108892605, -111.9397575088926], [33.4245932911074, -111.9397575088926], [33.4245932911074, -111.9399756911074], [33.424375108892605, -111.9399756911074]]
278,33.4250448,-111.9398818,Valley Art, [[33.424935708892605, -111.93977270889259], [33.4251538911074, -111.93977270889259], [33.4251538911074, -111.9399908911074], [33.424935708892605, -111.9399908911074]]
278,33.4263429,-111.9401072,Vintage Bar & Grill, [[33.426233808892604, -111.9399981088926], [33.4264519911074, -111.9399981088926], [33.4264519911074, -111.9402162911074], [33.426233808892604, -111.9402162911074]]
278,33.4244286,-111.9398727,Wells Fargo ATM, [[33.4243195088926, -111.93976360889259], [33.424537691107396, -111.93976360889259], [33.424537691107396, -111.9399817911074], [33.4243195088926, -111.9399817911074]]
278,33.4246180,-111.9398939,Zuma Grill, [[33.424508908892605, -111.9397848088926], [33.4247270911074, -111.9397848088926], [33.4247270911074, -111.9400029911074], [33.424508908892605, -111.9400029911074]]
278,33.4248798,-111.9403585,Mood Swings Salon & Spa, [[33.4247707088926, -111.9402494088926], [33.4249888911074, -111.9402494088926], [33.4249888911074, -111.9404675911074], [33.4247707088926, -111.9404675911074]]
